,name,Lon,Lat,Max Temp,Wind Speed,Humidity,Cloud Cover
0,Ushuaia,-68.3,-54.8,44.6,5.82,81.0,75.0
0,Punta Arenas,-70.92,-53.15,46.4,5.82,93.0,90.0
0,Río Gallegos,-69.22,-51.62,50.0,12.75,81.0,75.0
0,Bluff,168.33,-46.6,51.01,14.03,76.0,88.0
0,Kaitangata,169.85,-46.28,52.0,5.01,70.0,56.0
0,Mataura,168.86,-46.19,49.57,4.94,87.0,90.0
0,Dunedin,170.5,-45.87,54.0,1.99,87.0,97.0
0,Coyhaique,-72.07,-45.58,59.0,6.93,82.0,90.0
0,Te Anau,167.72,-45.42,52.7,4.18,86.0,92.0
0,Christchurch,172.63,-43.53,51.01,4.7,81.0,13.0
0,Hobart,147.33,-42.88,55.0,5.82,76.0,40.0
0,New Norfolk,147.06,-42.78,53.01,1.01,83.0,70.0
0,Ancud,-73.82,-41.87,62.6,8.05,72.0,100.0
0,Viedma,-63.0,-40.81,62.46,9.44,40.0,62.0
0,Necochea,-58.74,-38.55,57.99,4.0,65.0,42.0
0,Codrington,141.97,-38.27,50.9,10.13,94.0,2.0
0,Mar del Plata,-57.56,-38.0,62.01,10.29,59.0,59.0
0,Mount Gambier,140.77,-37.83,51.8,9.17,93.0,75.0
0,Bairnsdale,147.62,-37.83,54.0,4.56,82.0,0.0
0,Lebu,-73.65,-37.62,59.86,9.26,76.0,100.0
0,Ulladulla,150.47,-35.35,59.0,2.24,67.0,0.0
0,Swan Hill,143.55,-35.34,52.12,5.61,81.0,0.0
0,Constitución,-72.42,-35.33,64.56,5.5,46.0,93.0
0,Ahipara,173.17,-35.17,61.27,6.91,79.0,38.0
0,Departamento de Maldonado,-54.92,-34.67,59.0,8.05,62.0,75.0
0,Morón,-58.62,-34.65,64.0,6.02,100.0,76.0
0,Flinders,150.86,-34.58,63.0,1.99,82.0,0.0
0,Bredasdorp,20.04,-34.53,62.6,2.24,88.0,100.0
0,Rocha,-54.33,-34.48,55.35,5.1,65.0,99.0
0,Hermanus,19.23,-34.42,57.99,1.99,94.0,99.0
0,Mildura,142.15,-34.2,50.0,4.7,87.0,0.0
0,Machalí,-70.67,-34.18,78.8,6.93,21.0,0.0
0,Kruisfontein,24.73,-34.0,62.67,4.36,57.0,93.0
0,Cape Town,18.42,-33.93,64.99,14.99,93.0,20.0
0,Port Elizabeth,25.57,-33.92,60.8,3.36,93.0,100.0
0,Esperance,121.9,-33.87,53.6,17.22,93.0,90.0
0,Venado Tuerto,-61.97,-33.75,62.01,4.0,46.0,0.0
0,Chui,-53.46,-33.7,56.98,5.46,65.0,99.0
0,Busselton,115.33,-33.65,50.0,10.98,98.0,35.0
0,Port Alfred,26.89,-33.59,63.0,1.01,91.0,100.0
0,East London,27.91,-33.02,66.81,11.95,77.0,100.0
0,Saldanha,17.94,-33.01,59.0,4.7,87.0,100.0
0,Clarence Town,151.78,-32.58,54.0,3.18,93.0,0.0
0,Port Macquarie,152.92,-31.43,54.0,5.32,97.0,0.0
0,Port Shepstone,30.45,-30.74,63.9,5.21,83.0,43.0
0,Cidreira,-50.21,-30.18,59.36,9.86,81.0,71.0
0,Coquimbo,-71.34,-29.95,60.8,5.82,77.0,40.0
0,Prieska,22.75,-29.66,61.83,1.97,28.0,100.0
0,Moree,149.85,-29.47,51.8,8.88,81.0,0.0
0,Richards Bay,32.04,-28.78,64.99,4.27,89.0,10.0
0,Geraldton,114.6,-28.77,55.4,4.7,93.0,75.0
0,Oranjemund,16.43,-28.55,65.08,6.29,47.0,77.0
0,Santiago del Estero,-64.26,-27.8,65.44,6.93,45.0,0.0
0,Lüderitz,15.16,-26.65,57.2,12.75,87.0,45.0
0,San Vicente,-54.13,-26.62,53.1,3.15,62.0,6.0
0,Diego de Almagro,-70.05,-26.37,79.48,7.4,23.0,0.0
0,Yulara,130.99,-25.24,51.8,5.82,50.0,0.0
0,Ambovombe,46.08,-25.17,66.0,2.89,84.0,3.0
0,Carnarvon,113.63,-24.87,62.02,22.91,63.0,0.0
0,Castro,-50.01,-24.79,52.97,3.96,71.0,0.0
0,Gladstone,151.25,-23.85,64.4,5.82,82.0,75.0
0,Alice Springs,133.88,-23.7,51.8,4.7,27.0,0.0
0,Antofagasta,-70.4,-23.65,64.4,10.29,72.0,6.0
0,Rikitea,-134.97,-23.12,74.86,15.01,75.0,16.0
0,Arraial do Cabo,-42.03,-22.97,68.0,8.05,82.0,75.0
0,Monte Sião,-46.57,-22.43,57.47,5.3,87.0,32.0
0,Moerai,-151.33,-22.43,77.81,14.27,80.0,5.0
0,Manakara,48.02,-22.13,70.74,6.55,91.0,21.0
0,Henties Bay,14.28,-22.12,69.57,7.56,48.0,0.0
0,Bela Vista,-56.52,-22.11,62.78,3.96,42.0,0.0
0,Moindou,165.68,-21.69,69.8,4.7,83.0,20.0
0,São João da Barra,-41.05,-21.64,69.8,11.41,83.0,75.0
0,Saint-Joseph,55.62,-21.37,75.2,5.82,73.0,100.0
0,Saint-Philippe,55.77,-21.36,75.2,5.82,73.0,99.0
0,Poya,165.15,-21.35,71.15,12.01,79.0,35.0
0,Avarua,-159.78,-21.21,82.4,4.7,78.0,15.0
0,Vaini,-175.2,-21.2,78.8,6.93,88.0,75.0
0,Karratha,116.85,-20.74,71.6,4.52,81.0,71.0
0,Mount Isa,139.5,-20.73,55.4,4.7,71.0,53.0
0,Castelo,-41.18,-20.6,62.76,1.72,92.0,100.0
0,Souillac,57.52,-20.52,73.4,4.7,94.0,40.0
0,Mahébourg,57.7,-20.41,73.4,4.7,94.0,40.0
0,Bambous Virieux,57.76,-20.34,73.99,4.7,94.0,40.0
0,Vila Velha,-40.29,-20.33,68.0,8.05,88.0,90.0
0,Port Hedland,118.57,-20.32,68.0,8.05,72.0,3.0
0,Charters Towers,146.27,-20.1,60.4,6.98,91.0,90.0
0,Isangel,169.27,-19.55,75.38,8.77,78.0,27.0
0,Tsumeb,17.72,-19.23,61.34,9.04,33.0,0.0
0,Alofi,-169.92,-19.06,80.6,6.93,88.0,75.0
0,Puerto Suárez,-57.8,-18.95,69.8,10.29,37.0,99.0
0,Opuwo,13.84,-18.06,63.75,8.34,29.0,0.0
0,Santa Cruz de la Sierra,-63.17,-17.8,73.4,11.41,35.0,100.0
0,Tautira,-149.15,-17.73,86.0,6.93,66.0,3.0
0,Caravelas,-39.25,-17.71,73.98,15.84,90.0,63.0
0,Eenhana,16.33,-17.47,61.41,6.58,37.0,0.0
0,Prado,-39.22,-17.34,75.11,9.82,92.0,89.0
0,Mareeba,145.43,-17.0,70.0,3.2,94.0,66.0
0,Faanui,-151.75,-16.48,81.72,14.03,74.0,29.0
0,Angoche,39.91,-16.23,74.61,9.91,77.0,40.0
0,Mananara,49.77,-16.17,72.93,4.45,90.0,44.0
0,Senanga,23.27,-16.12,63.73,4.34,56.0,0.0
0,Belmonte,-38.88,-15.86,80.6,9.17,78.0,20.0
0,Kununurra,128.73,-15.77,60.8,3.36,87.0,0.0
0,Mossamedes,12.15,-15.2,81.72,6.93,50.0,0.0
0,Lubango,13.49,-14.92,58.78,4.97,57.0,0.0
0,Port Keats,129.55,-14.25,68.14,7.07,54.0,0.0
0,Mitsamiouli,43.28,-11.38,81.97,11.7,76.0,1.0
0,Masuguru,38.42,-11.37,71.85,4.63,87.0,54.0
0,Samarai,150.67,-10.62,79.29,17.69,79.0,54.0
0,Kirakira,161.92,-10.45,80.08,6.87,82.0,37.0
0,Kupang,123.58,-10.17,77.05,11.21,83.0,7.0
0,Huarmey,-78.15,-10.07,74.5,9.91,68.0,66.0
0,Ariquemes,-63.04,-9.91,74.59,5.88,81.0,99.0
0,Alta Floresta,-56.09,-9.88,82.4,5.82,74.0,40.0
0,Soe,124.28,-9.86,63.61,4.83,100.0,16.0
0,Atuona,-139.03,-9.8,80.94,20.02,76.0,60.0
0,Miracema do Tocantins,-48.4,-9.56,77.63,3.8,87.0,97.0
0,Mporokoso,30.12,-9.37,62.4,8.57,82.0,0.0
0,Daru,143.21,-9.08,79.03,14.5,80.0,100.0
0,Maragogi,-35.22,-9.01,78.53,7.07,83.0,99.0
0,Airai,125.41,-8.93,55.65,2.95,85.0,5.0
0,Auki,160.7,-8.77,81.52,2.26,78.0,8.0
0,Merauke,140.33,-8.47,78.12,12.17,82.0,100.0
0,São Joaquim do Monte,-35.8,-8.43,70.66,7.09,93.0,100.0
0,Ambulu,113.61,-8.35,76.53,3.29,90.0,27.0
0,Kerema,145.78,-7.96,77.34,5.14,87.0,75.0
0,Chicama,-79.15,-7.84,71.6,11.41,83.0,64.0
0,Gondanglegi,112.01,-7.75,77.29,10.09,87.0,52.0
0,Gombong,109.51,-7.61,76.26,2.57,93.0,81.0
0,Pitimbu,-34.81,-7.47,82.4,9.17,78.0,20.0
0,Maneromango,38.78,-7.2,78.8,3.91,88.0,75.0
0,Bellavista,-76.59,-7.06,82.4,10.29,74.0,40.0
0,Kasongo-Lunda,16.82,-6.47,73.13,1.01,73.0,26.0
0,Mpanda,31.04,-6.37,65.71,2.08,93.0,36.0
0,Jacareacanga,-57.75,-6.22,83.88,1.92,78.0,30.0
0,Tual,132.75,-5.67,82.62,18.99,78.0,23.0
0,Upanema,-37.26,-5.64,84.2,8.05,79.0,75.0
0,Sechura,-80.82,-5.56,82.08,14.32,53.0,1.0
0,Porgera,143.2,-5.47,41.0,0.56,100.0,100.0
0,Luebo,21.42,-5.35,74.44,3.22,76.0,0.0
0,Lusambo,23.45,-4.97,73.63,2.1,84.0,8.0
0,Nova Olinda do Norte,-59.09,-3.89,80.8,1.92,93.0,88.0
0,Codajás,-62.06,-3.84,82.35,3.33,84.0,11.0
0,Payo,103.64,-3.75,73.63,2.19,94.0,98.0
0,Namatanai,152.43,-3.67,81.0,4.29,75.0,0.0
0,Amahai,128.92,-3.33,79.29,4.29,84.0,61.0
0,Itarema,-39.92,-2.92,79.43,9.44,81.0,26.0
0,Acaraú,-40.12,-2.89,80.01,9.42,81.0,18.0
0,Manggar,108.27,-2.88,83.43,7.85,80.0,100.0
0,Nioki,17.68,-2.72,75.97,2.19,87.0,3.0
0,Pangkalanbuun,111.62,-2.68,76.41,2.08,96.0,95.0
0,Gamba,10.0,-2.65,78.67,4.59,91.0,91.0
0,Kavieng,150.8,-2.57,82.85,6.58,73.0,0.0
0,Sampit,112.95,-2.53,76.08,2.04,98.0,22.0
0,Lorengau,147.27,-2.02,81.18,2.06,79.0,9.0
0,Omboué,9.26,-1.57,79.72,5.3,90.0,100.0
0,Padang,100.35,-0.95,78.28,7.78,81.0,100.0
0,Sorong,131.25,-0.88,79.41,8.72,85.0,46.0
0,Manokwari,134.08,-0.87,80.02,4.27,74.0,62.0
0,Puerto Ayora,-90.35,-0.74,86.0,11.41,66.0,20.0
0,Port-Gentil,8.78,-0.72,82.4,6.93,88.0,40.0
0,Hithadhoo,73.08,-0.6,84.51,14.76,78.0,5.0
0,Loa Janan,117.09,-0.58,75.9,0.29,97.0,83.0
0,Santa Isabel Rio Negro,-65.02,-0.41,80.98,3.33,94.0,38.0
0,Boende,20.87,-0.22,71.89,3.62,97.0,100.0
0,Kisangani,25.2,0.52,68.07,1.23,98.0,100.0
0,Thinadhoo,72.93,0.53,84.6,14.92,78.0,56.0
0,Amapá,-52.0,1.0,73.4,4.63,98.0,100.0
0,Mitú,-70.17,1.2,81.05,1.81,93.0,69.0
0,La Macarena,-73.78,2.18,83.16,3.33,67.0,76.0
0,Moroto,34.67,2.53,67.96,4.41,81.0,71.0
0,Kudahuvadhoo,72.89,2.67,84.61,13.71,75.0,6.0
0,Butaritari,172.79,3.07,83.17,9.62,78.0,100.0
0,Libenge,18.63,3.65,73.74,1.97,96.0,72.0
0,Mahibadhoo,72.97,3.78,84.47,12.12,74.0,0.0
0,Inírida,-67.92,3.87,84.4,0.47,83.0,61.0
0,Meulaboh,96.13,4.14,75.02,1.14,96.0,100.0
0,Paka,103.44,4.64,78.8,3.71,100.0,96.0
0,Takoradze,-1.76,4.88,81.61,7.65,85.0,31.0
0,Yenagoa,6.26,4.92,77.65,3.76,85.0,13.0
0,Mumford,-0.76,5.26,82.04,9.98,85.0,93.0
0,Obo,26.49,5.4,70.09,1.54,97.0,96.0
0,Sarangani,125.46,5.4,83.43,8.99,77.0,1.0
0,George Town,100.34,5.41,80.6,1.12,100.0,20.0
0,Tambura,27.47,5.6,70.56,2.33,92.0,100.0
0,Bétaré Oya,14.08,5.6,71.71,0.45,90.0,99.0
0,Anloga,0.9,5.79,84.2,11.41,83.0,40.0
0,Buchanan,-10.05,5.88,81.23,4.7,83.0,88.0
0,Mabay,124.47,6.06,80.51,3.11,80.0,39.0
0,Koforidua,-0.26,6.09,84.2,11.41,83.0,75.0
0,Hambantota,81.12,6.12,81.55,11.63,80.0,100.0
0,Porto-Novo,2.6,6.5,84.2,11.41,83.0,40.0
0,Sai Buri,101.62,6.7,80.26,4.74,88.0,99.0
0,Mīzan Teferī,35.58,6.98,63.54,2.86,91.0,100.0
0,Yaan,8.57,7.38,82.83,9.37,73.0,63.0
0,Bonthe,-12.51,7.53,80.2,3.6,88.0,78.0
0,San Cristobal,-72.22,7.77,98.6,23.04,30.0,20.0
0,Simití,-73.94,7.96,89.92,2.8,61.0,93.0
0,Eyl,49.82,7.98,83.8,7.18,71.0,0.0
0,Balabac,117.06,7.99,83.43,7.92,77.0,84.0
0,Marawi,124.29,8.0,78.01,5.99,85.0,11.0
0,Kanniyākumāri,77.57,8.08,83.84,8.3,80.0,99.0
0,Ouadda,22.4,8.08,71.04,7.76,90.0,100.0
0,Gamarra,-73.74,8.32,89.35,4.36,66.0,100.0
0,Garoowe,48.48,8.41,81.03,10.92,69.0,16.0
0,Gogrial,28.1,8.53,83.16,6.76,60.0,88.0
0,Beyla,-8.63,8.68,73.92,2.33,84.0,20.0
0,Deder,41.45,9.32,57.67,2.08,94.0,62.0
0,Basay,122.64,9.41,81.7,3.98,78.0,87.0
0,Bandarbeyla,50.81,9.49,83.23,8.55,72.0,0.0
0,Dire Dawa,41.87,9.59,72.41,5.35,67.0,34.0
0,Ferkessédougou,-5.2,9.6,81.5,8.41,70.0,37.0
0,Bulata,122.4,9.86,82.85,4.9,77.0,22.0
0,Vinh Long,105.97,10.25,78.8,2.68,100.0,20.0
0,Fria,-13.58,10.42,78.24,4.45,86.0,90.0
0,Kavaratti,72.64,10.57,85.64,7.83,70.0,46.0
0,Mandiana,-8.68,10.63,86.5,4.56,49.0,96.0
0,Dingle,122.67,11.0,78.98,5.44,88.0,7.0
0,Bubaque,-15.83,11.28,78.46,20.22,77.0,5.0
0,Banikoara,2.44,11.3,92.57,4.36,23.0,27.0
0,Funtua,7.31,11.52,80.26,3.09,21.0,48.0
0,Port Blair,92.75,11.67,83.34,6.49,82.0,100.0
0,Ngama,17.17,11.78,92.77,3.89,31.0,50.0
0,San Policarpo,125.51,12.18,81.81,10.38,85.0,90.0
0,Anito,125.29,12.45,80.08,7.16,89.0,83.0
0,Ullal,74.85,12.8,81.19,5.95,77.0,100.0
0,Kattivākkam,80.32,13.22,86.0,3.36,79.0,40.0
0,Bathsheba,-59.52,13.22,84.2,21.92,66.0,20.0
0,Diffa,12.61,13.32,87.33,2.89,23.0,80.0
0,Samut Sakhon,100.27,13.55,88.0,6.93,74.0,20.0
0,Markala,-6.07,13.7,94.1,4.61,20.0,16.0
0,Kutum,24.67,14.2,75.02,10.6,19.0,2.0
0,Ouallam,2.09,14.32,86.54,6.26,11.0,13.0
0,City of San Pedro,121.02,14.35,86.0,5.99,77.0,80.0
0,Rāyadrug,76.87,14.7,82.24,8.79,60.0,99.0
0,Bakel,-12.46,14.9,96.17,5.73,13.0,6.0
0,São Filipe,-24.5,14.9,73.92,8.84,79.0,36.0
0,Praia,-23.51,14.92,75.2,18.34,69.0,75.0
0,Iralaya,-83.23,15.0,91.4,11.41,63.0,40.0
0,Sayyan,44.32,15.17,63.37,7.76,46.0,14.0
0,Palauig,119.9,15.44,83.62,3.09,74.0,65.0
0,Puerto Escondido,-97.07,15.85,86.0,8.05,70.0,40.0
0,Salalah,54.09,17.02,82.4,6.93,88.0,20.0
0,Dābhol,73.17,17.6,76.14,2.04,89.0,55.0
0,Yārāda,83.27,17.65,82.4,5.82,88.0,20.0
0,Santa Cruz de Barahona,-71.1,18.21,85.48,10.83,62.0,3.0
0,Abhā,42.51,18.22,71.6,1.66,77.0,20.0
0,Faya,42.45,18.39,71.6,0.94,77.0,20.0
0,Phonhong,102.42,18.5,80.2,2.95,83.0,100.0
0,Bilma,12.92,18.69,84.85,5.77,13.0,0.0
0,Coahuayana Viejo,-103.68,18.73,89.6,11.41,43.0,75.0
0,Wanning,110.4,18.8,79.38,11.25,91.0,81.0
0,San Patricio,-104.7,19.22,82.4,7.27,78.0,40.0
0,Bodden Town,-81.25,19.28,87.8,11.41,74.0,40.0
0,Taretán,-101.92,19.33,80.6,11.41,34.0,5.0
0,Hilo,-155.09,19.73,80.6,8.05,61.0,1.0
0,Lingao,109.69,19.91,79.39,10.89,72.0,41.0
0,Tomatlán,-105.25,19.93,90.73,8.32,43.0,0.0
0,Sittwe,92.9,20.15,80.46,11.48,67.0,0.0
0,Tessalit,1.01,20.2,89.35,11.27,11.0,0.0
0,Adrar,-10.07,20.5,96.1,10.02,15.0,89.0
0,Moa,-74.94,20.66,83.16,4.74,71.0,54.0
0,Ixtapa,-105.2,20.7,84.2,11.41,70.0,40.0
0,Kahului,-156.47,20.89,80.6,12.75,61.0,40.0
0,Nouadhibou,-17.03,20.93,68.0,18.34,72.0,0.0
0,Progreso,-89.67,21.28,93.2,11.41,36.0,75.0
0,Makakilo City,-158.09,21.35,80.6,10.29,65.0,20.0
0,Cockburn Town,-71.14,21.46,84.2,6.93,74.0,40.0
0,Kapaa,-159.32,22.08,77.0,18.34,69.0,75.0
0,Dwārka,68.97,22.24,81.14,11.3,86.0,0.0
0,Hong Kong,114.16,22.29,82.99,1.99,86.0,98.0
0,Satwās,76.68,22.53,84.52,5.19,17.0,0.0
0,Sur,59.53,22.57,91.04,5.44,39.0,14.0
0,Simao,100.97,22.79,66.81,0.72,65.0,0.0
0,Lashio,97.75,22.93,66.13,1.61,70.0,0.0
0,Cedral,-100.73,23.8,78.82,9.8,26.0,0.0
0,Ishigaki,124.16,24.34,75.76,13.58,86.0,30.0
0,Hirara,125.28,24.8,75.49,13.65,83.0,12.0
0,Jiwani,61.74,25.05,84.45,10.45,70.0,79.0
0,Esna,32.55,25.29,80.6,11.16,30.0,0.0
0,Doha,51.53,25.29,82.4,9.17,32.0,92.0
0,Chabahar,60.64,25.29,85.15,13.31,66.0,58.0
0,Naugachhia,87.1,25.4,83.91,5.19,30.0,0.0
0,Valle Hermoso,-97.83,25.67,91.4,12.75,52.0,75.0
0,China,-99.23,25.7,91.35,20.27,44.0,2.0
0,Brownsville,-97.5,25.9,91.4,17.22,49.0,40.0
0,Harlingen,-97.7,26.19,91.4,19.46,52.0,20.0
0,Gushikawa,127.87,26.35,69.8,17.22,94.0,90.0
0,High Rock,-78.28,26.62,78.8,17.22,61.0,75.0
0,Ţahţā,31.5,26.77,82.4,9.17,13.0,12.0
0,Guerrero Negro,-114.06,27.98,82.51,14.34,30.0,0.0
0,Spring Hill,-82.53,28.48,78.8,10.29,24.0,1.0
0,Los Llanos de Aridane,-17.92,28.66,68.0,9.17,72.0,20.0
0,Awjilah,21.29,29.11,78.44,4.47,15.0,62.0
0,El Campo,-96.27,29.2,80.6,17.22,51.0,90.0
0,Jumla,82.18,29.27,40.28,4.47,67.0,11.0
0,Ninghai,121.42,29.29,72.0,5.99,97.0,100.0
0,Tiznit Province,-9.5,29.58,62.17,5.39,79.0,41.0
0,Huangmei,116.03,30.19,72.9,3.8,93.0,55.0
0,Santa Cruz,-9.6,30.42,66.2,11.41,82.0,0.0
0,San Quintín,-115.95,30.48,74.97,7.49,46.0,22.0
0,Joshīmath,79.57,30.57,45.45,8.84,48.0,1.0
0,Ajdabiya,20.23,30.76,71.13,15.35,59.0,1.0
0,Temple,-97.34,31.1,80.6,21.92,54.0,75.0
0,Kiryat Gat,34.76,31.61,66.99,3.56,68.0,0.0
0,Palestine,35.2,31.92,66.99,3.36,72.0,0.0
0,Safi,-9.24,32.3,64.76,8.41,86.0,0.0
0,Rosarito,-117.03,32.33,86.0,8.05,51.0,1.0
0,Jiangyan,120.14,32.51,71.01,4.0,79.0,91.0
0,Fortuna Foothills,-114.41,32.66,105.01,6.93,6.0,1.0
0,Ponta do Sol,-17.1,32.67,64.4,5.82,72.0,20.0
0,Ankang,109.02,32.68,63.82,0.36,90.0,100.0
0,Fukuechō,128.84,32.69,65.93,15.68,70.0,81.0
0,Fareydūnshahr,50.12,32.94,41.83,5.1,62.0,0.0
0,Camacha,-16.33,33.08,66.2,4.7,68.0,40.0
0,Qinnan,119.91,33.25,67.26,17.16,87.0,100.0
0,Griffin,-84.26,33.25,69.01,8.05,31.0,1.0
0,Mengcheng,116.57,33.26,67.17,8.19,94.0,96.0
0,Myrtle Beach,-78.89,33.69,70.0,12.75,33.0,1.0
0,Leh,77.58,34.17,35.87,4.21,67.0,48.0
0,Lompoc,-120.46,34.64,75.99,14.99,55.0,1.0
0,Shimoda,138.95,34.67,58.37,4.99,67.0,99.0
0,Meadow Lake,-106.54,34.8,90.0,13.87,6.0,40.0
0,Katsuura,140.3,35.13,55.4,5.82,50.0,75.0
0,Nador,-2.93,35.17,68.0,6.93,77.0,90.0
0,Jining,116.58,35.41,59.95,10.49,95.0,100.0
0,Kissamos,23.66,35.49,64.0,4.7,82.0,75.0
0,Semnan,53.4,35.57,64.13,3.58,35.0,0.0
0,Hasaki,140.83,35.73,50.0,1.12,93.0,75.0
0,Baghlan,68.71,36.13,74.03,7.09,44.0,95.0
0,Pahrump,-115.98,36.21,93.0,1.99,6.0,0.0
0,Mikuni,136.15,36.22,44.6,2.24,81.0,40.0
0,Sarakhs,61.16,36.54,71.6,4.7,60.0,51.0
0,Pacific Grove,-121.92,36.62,81.0,5.82,55.0,1.0
0,Salinas,-121.66,36.68,81.0,12.75,46.0,1.0
0,Paros,25.15,37.08,60.01,14.99,71.0,91.0
0,Saint George,-113.58,37.1,84.0,3.36,14.0,1.0
0,Archidona,-4.39,37.1,68.0,6.35,75.0,1.0
0,Hurricane,-113.29,37.18,84.0,3.36,14.0,1.0
0,Megalopolis,22.14,37.4,62.01,4.59,72.0,40.0
0,Half Moon Bay,-122.43,37.46,87.01,6.93,18.0,5.0
0,Ponta Delgada,-25.67,37.73,62.6,13.87,82.0,40.0
0,San Ramon,-121.98,37.78,89.01,3.02,10.0,1.0
0,Dinar,30.17,38.06,51.8,6.93,87.0,75.0
0,Laguna,-121.42,38.42,87.8,11.41,12.0,1.0
0,Montrose,-108.27,38.42,71.6,17.22,8.0,1.0
0,Ribeira Grande,-28.7,38.52,64.4,18.34,88.0,40.0
0,Forestville,-76.88,38.85,69.01,11.41,23.0,1.0
0,Sterling,-77.43,39.01,68.0,11.41,24.0,20.0
0,Dalianwan,121.69,39.03,55.4,6.71,82.0,40.0
0,Lagoa,-27.98,39.05,62.26,18.95,83.0,31.0
0,Laurel,-76.85,39.1,68.0,10.29,33.0,1.0
0,Hamilton,-84.53,39.18,68.0,13.87,34.0,75.0
0,Paola,16.04,39.36,60.8,5.82,82.0,0.0
0,Peniche,-9.38,39.36,63.0,7.0,84.0,88.0
0,Pleasantville,-74.52,39.39,66.2,12.75,22.0,1.0
0,Bud,-86.18,39.45,64.0,20.8,39.0,90.0
0,Fallon,-118.78,39.47,71.01,8.01,10.0,33.0
0,Miyako,141.95,39.64,47.71,4.32,64.0,0.0
0,Jiuquan,98.52,39.74,49.26,8.63,50.0,97.0
0,Cabras,8.53,39.93,54.0,3.0,74.0,14.0
0,Gazli,63.45,40.13,74.77,9.75,53.0,96.0
0,Lata,-8.33,40.16,64.99,1.01,80.0,68.0
0,Greensburg,-79.54,40.3,62.6,17.22,27.0,75.0
0,Yangi Marg`ilon,71.72,40.43,68.0,6.93,42.0,100.0
0,Zhangjiakou Shi Xuanhua Qu,115.04,40.61,58.06,3.65,71.0,100.0
0,Freeport,-73.58,40.66,66.2,8.05,17.0,1.0
0,Plainview,-73.47,40.78,66.2,8.05,17.0,1.0
0,Eureka,-124.16,40.8,69.01,5.99,53.0,66.0
0,Winnemucca,-117.74,40.97,66.2,13.87,11.0,1.0
0,Elko,-115.5,41.0,64.99,4.7,13.0,1.0
0,Bourbonnais,-87.88,41.14,66.2,13.87,32.0,40.0
0,Indianola,-93.56,41.36,63.0,4.7,36.0,90.0
0,Bethel,-73.41,41.37,64.99,9.17,20.0,1.0
0,Barcelos,-8.62,41.54,64.99,2.24,100.0,75.0
0,Bafra,35.91,41.57,53.6,6.93,81.0,75.0
0,Scottsbluff,-103.67,41.87,60.01,27.51,33.0,40.0
0,Khani,42.96,41.96,55.4,9.17,93.0,40.0
0,Jamestown,-79.24,42.1,55.4,26.4,37.0,40.0
0,Palmer,-72.33,42.16,64.99,9.17,17.0,75.0
0,Radnevo,25.93,42.3,55.4,9.17,66.0,40.0
0,Ingham,-84.38,42.6,59.0,16.11,26.0,40.0
0,Albany,-73.97,42.6,64.99,1.99,15.0,58.0
0,Rupert,-113.68,42.62,55.4,6.93,22.0,1.0
0,Vrangel',133.08,42.73,47.12,1.01,68.0,2.0
0,Muros,-9.06,42.78,61.0,14.0,81.0,95.0
0,Kumul,93.45,42.8,53.4,7.07,35.0,0.0
0,Hunchun,130.36,42.87,49.78,0.67,56.0,61.0
0,Panshi,126.06,42.94,55.15,5.59,58.0,100.0
0,Oneida,-75.47,43.2,57.2,16.11,33.0,90.0
0,Carballo,-8.69,43.21,57.99,5.01,92.0,63.0
0,Muskegon,-86.13,43.3,57.2,11.41,22.0,40.0
0,Nemuro,145.57,43.32,39.72,7.99,76.0,0.0
0,Coos Bay,-124.22,43.37,73.99,19.46,59.0,1.0
0,Zhengjiatun,123.51,43.51,60.64,11.21,49.0,100.0
0,Raymond,-70.47,43.9,60.01,1.99,49.0,91.0
0,Zhanakorgan,67.25,43.91,72.59,9.01,38.0,85.0
0,Rapid Valley,-103.15,44.06,55.4,28.86,43.0,20.0
0,Shelburne,-80.2,44.08,48.99,13.87,75.0,75.0
0,Agen,0.63,44.2,71.01,9.17,56.0,100.0
0,Sovetskaya,41.17,44.78,55.0,5.01,10.0,87.0
0,Yushu,126.53,44.8,60.15,12.73,49.0,100.0
0,Saint Anthony,-93.22,45.02,60.01,10.29,21.0,1.0
0,Shangzhi,127.97,45.22,57.06,9.84,60.0,100.0
0,Port Hawkesbury,-61.35,45.62,34.0,13.87,97.0,90.0
0,Saint-Jérôme,-74.0,45.78,57.99,5.82,28.0,75.0
0,Morbegno,9.57,46.14,62.01,2.08,56.0,55.0
0,Asău,26.4,46.43,45.0,4.38,78.0,85.0
0,Oga,10.35,46.46,50.0,4.7,75.0,16.0
0,Nevel'sk,141.86,46.67,37.4,8.95,93.0,75.0
0,Marystown,-55.15,47.17,39.0,0.13,75.0,80.0
0,Channel-Port aux Basques,-59.14,47.57,33.01,4.47,95.0,100.0
0,Bay Roberts,-53.26,47.6,46.99,1.86,68.0,99.0
0,Torbay,-52.73,47.67,48.0,6.93,65.0,75.0
0,Bonaventure,-65.49,48.05,50.0,4.7,31.0,1.0
0,Tiszanagyfalu,21.48,48.1,51.8,3.36,57.0,65.0
0,Chernyshkovskiy,42.23,48.42,58.21,2.06,82.0,100.0
0,Plérin,-2.78,48.54,59.0,5.12,76.0,100.0
0,Atasū,71.64,48.68,55.94,12.55,50.0,98.0
0,Macamic,-79.0,48.75,35.6,12.75,31.0,75.0
0,Rheinau,8.2,48.87,59.0,3.36,51.0,69.0
0,Ucluelet,-125.55,48.93,60.8,9.17,59.0,20.0
0,Pohořelice,16.52,48.98,51.8,8.05,57.0,0.0
0,Riviere-au-Renard,-64.4,49.0,41.0,11.41,65.0,90.0
0,Sainte-Anne-des-Monts,-66.49,49.12,41.77,3.78,64.0,89.0
0,Chapais,-74.85,49.78,33.8,9.17,55.0,90.0
0,Mníšek pod Brdy,14.26,49.87,53.01,4.0,87.0,0.0
0,Medicine Hat,-110.67,50.05,68.0,6.93,24.0,75.0
0,Abbeville,1.83,50.1,57.0,4.05,76.0,100.0
0,Pinawa,-95.88,50.15,46.99,13.8,46.0,0.0
0,Khromtau,58.43,50.25,52.9,9.48,49.0,0.0
0,Severo-Kuril'sk,156.12,50.68,34.34,14.76,88.0,99.0
0,Port Hardy,-127.42,50.7,51.8,4.7,71.0,40.0
0,Solnechnyy,136.63,50.72,53.38,7.16,43.0,100.0
0,Northam,-4.22,51.03,55.0,1.99,89.0,71.0
0,Teeli,90.23,51.03,44.46,3.18,72.0,57.0
0,Salisbury,-1.8,51.07,59.0,6.93,67.0,100.0
0,Margate,1.39,51.38,54.0,6.51,69.0,100.0
0,Chatham,0.53,51.38,59.0,4.0,54.0,100.0
0,Skibbereen,-9.27,51.55,51.8,5.82,93.0,75.0
0,Newport,-3.0,51.59,59.0,7.38,76.0,77.0
0,Canora,-102.43,51.63,51.8,8.05,18.0,1.0
0,Sosnovo-Ozerskoye,111.54,52.52,36.46,6.62,79.0,100.0
0,Ust'-Karsk,118.81,52.7,38.95,3.31,66.0,33.0
0,Soskovo,35.38,52.75,42.03,6.71,93.0,0.0
0,Stepnyak,70.78,52.83,53.44,5.79,43.0,97.0
0,Sierpc,19.67,52.86,45.05,2.62,79.0,29.0
0,Bukachacha,116.92,52.98,36.1,2.24,75.0,81.0
0,Petropavlovsk-Kamchatskiy,158.65,53.05,37.4,2.24,59.0,50.0
0,Bayanday,105.51,53.07,36.63,5.35,93.0,7.0
0,Tokur,132.9,53.13,40.71,4.21,90.0,100.0
0,Balasheyka,48.09,53.28,56.57,3.42,91.0,100.0
0,Zeya,127.27,53.75,39.38,2.75,73.0,22.0
0,Prince George,-122.75,53.92,59.0,4.7,54.0,75.0
0,Lomovka,58.37,53.92,51.8,6.71,54.0,4.0
0,Amur Oblast,128.0,54.0,37.22,4.36,79.0,67.0
0,Prince Rupert,-130.32,54.32,53.6,6.93,54.0,1.0
0,Poltavka,71.76,54.37,58.19,5.41,43.0,0.0
0,Sobolevo,31.9,54.43,41.81,9.46,91.0,91.0
0,Tupik,119.93,54.43,33.55,5.1,85.0,0.0
0,Dmitriyevka,55.33,54.75,50.0,4.47,71.0,45.0
0,Flin Flon,-101.86,54.77,44.6,4.7,16.0,40.0
0,Yermish',42.27,54.77,53.67,6.06,91.0,100.0
0,Shumskiy,99.13,54.83,38.46,13.35,83.0,84.0
0,Rønne,14.71,55.1,48.2,10.29,93.0,0.0
0,Chulym,80.96,55.1,50.5,5.48,77.0,54.0
0,Slave Lake,-114.77,55.28,53.6,5.82,54.0,1.0
0,Barabinsk,78.36,55.36,55.42,2.21,78.0,5.0
0,Ayr,-4.63,55.46,55.4,6.24,71.0,40.0
0,Thompson,-97.86,55.74,30.2,9.17,63.0,75.0
0,Belyy,32.94,55.84,43.21,10.13,91.0,100.0
0,Karakulino,53.71,56.01,60.53,6.73,59.0,100.0
0,Yalutorovsk,66.3,56.65,57.56,5.73,47.0,0.0
0,Chara,118.26,56.91,31.55,2.1,86.0,0.0
0,Bakchar,82.07,57.02,45.21,3.04,73.0,100.0
0,Sitka,-135.33,57.05,55.4,10.29,43.0,40.0
0,Poddor'ye,31.12,57.47,39.16,7.67,74.0,81.0
0,Peterhead,-1.8,57.51,55.4,5.82,87.0,75.0
0,Saint Paul Harbor,-152.41,57.79,44.6,29.97,81.0,90.0
0,Tigil',158.67,57.8,33.28,5.73,94.0,98.0
0,Suna,50.06,57.83,57.36,6.91,89.0,100.0
0,Stornoway,-6.39,58.21,52.0,2.24,76.0,93.0
0,Kotel'nich,48.35,58.31,55.49,8.12,95.0,100.0
0,Boguchany,97.45,58.38,39.33,7.61,87.0,93.0
0,Palana,159.97,59.12,28.99,8.16,99.0,95.0
0,Ossora,163.07,59.24,33.28,5.37,94.0,95.0
0,Peleduy,112.74,59.63,31.96,1.57,96.0,99.0
0,Arman',150.17,59.7,35.08,5.77,81.0,59.0
0,Nikolskoye,30.79,59.7,42.01,4.47,75.0,0.0
0,Gornopravdinsk,69.9,60.05,57.49,3.94,60.0,96.0
0,Novaya Ladoga,32.3,60.1,42.01,7.65,55.0,85.0
0,Nanortalik,-45.24,60.14,40.78,1.05,79.0,85.0
0,Severo-Yeniseyskiy,93.04,60.37,29.14,3.67,99.0,24.0
0,Brae,-1.35,60.4,46.4,11.41,93.0,100.0
0,Koygorodok,51.0,60.45,54.43,7.56,89.0,100.0
0,Haines Junction,-137.51,60.75,49.59,6.24,48.0,68.0
0,Hay River,-115.8,60.82,46.4,12.75,65.0,20.0
0,Narsaq,-46.05,60.92,50.0,6.93,57.0,75.0
0,Voznesen'ye,35.48,61.01,42.17,7.0,89.0,100.0
0,Pitkyaranta,31.48,61.57,40.86,4.92,68.0,3.0
0,Baykit,96.37,61.67,33.31,3.29,92.0,7.0
0,Paamiut,-49.67,61.99,38.75,4.68,79.0,59.0
0,Yellowknife,-114.35,62.46,46.4,14.99,70.0,90.0
0,Voyvozh,54.96,62.89,53.11,9.04,89.0,87.0
0,Beringovskiy,179.32,63.05,31.21,11.1,98.0,100.0
0,Rindal,9.21,63.06,42.8,20.8,81.0,98.0
0,Nyurba,118.33,63.28,25.02,12.82,89.0,99.0
0,Vestmannaeyjar,-20.27,63.44,45.32,19.01,75.0,26.0
0,Hegra,11.11,63.46,43.0,13.87,75.0,75.0
0,Iqaluit,-68.51,63.75,30.2,16.11,58.0,40.0
0,Vilyuysk,121.62,63.76,20.19,16.28,95.0,100.0
0,Grindavik,-22.43,63.84,42.8,8.05,93.0,75.0
0,Sangar,127.47,63.92,40.64,7.9,73.0,100.0
0,Nuuk,-51.72,64.18,44.6,11.41,70.0,20.0
0,Provideniya,-173.3,64.38,30.2,13.42,74.0,16.0
0,Nome,-165.41,64.5,44.01,3.36,86.0,1.0
0,Ust-Nera,143.2,64.57,28.09,4.7,93.0,99.0
0,Fairbanks,-147.72,64.84,64.99,6.93,36.0,1.0
0,College,-147.8,64.86,64.99,3.36,36.0,20.0
0,Olafsvik,-23.71,64.89,42.57,5.68,75.0,77.0
0,Norman Wells,-126.83,65.28,39.2,11.41,60.0,20.0
0,Maniitsoq,-52.9,65.42,39.25,3.65,71.0,22.0
0,Lavrentiya,-171.0,65.58,27.55,1.81,96.0,33.0
0,Tasiilaq,-37.64,65.61,39.2,14.99,41.0,9.0
0,Akureyri,-18.09,65.68,37.4,24.16,64.0,75.0
0,Keminmaa,24.82,65.86,33.8,3.36,64.0,46.0
0,Usinsk,57.53,65.99,53.01,20.56,92.0,100.0
0,Pangnirtung,-65.71,66.15,23.0,5.82,73.0,20.0
0,Salekhard,66.6,66.53,38.52,7.38,99.0,100.0
0,Yar-Sale,70.83,66.83,37.65,9.51,99.0,100.0
0,Sisimiut,-53.67,66.94,37.54,11.14,72.0,0.0
0,Tazovsky,78.7,67.47,33.21,12.95,95.0,100.0
0,Sørland,12.69,67.67,32.0,4.7,82.0,40.0
0,Ostrovnoy,39.51,68.05,33.64,14.76,93.0,45.0
0,Aklavik,-135.01,68.22,30.2,8.05,68.0,5.0
0,Belaya Gora,146.42,68.53,26.55,8.66,96.0,73.0
0,Cherskiy,161.3,68.75,32.34,1.81,92.0,6.0
0,Harstad,16.53,68.8,33.8,2.24,95.0,99.0
0,Ilulissat,-51.1,69.22,30.2,13.87,63.0,5.0
0,Deputatsky,139.9,69.3,23.13,8.72,99.0,100.0
0,Leningradskiy,178.42,69.38,27.46,3.0,89.0,0.0
0,Tuktoyaktuk,-133.04,69.45,15.8,12.75,92.0,90.0
0,Talnakh,88.4,69.49,28.4,4.47,79.0,40.0
0,Pevek,170.31,69.7,27.05,6.46,91.0,4.0
0,Skjervøy,20.97,70.03,37.45,24.9,78.0,100.0
0,Vardø,31.11,70.37,35.6,12.75,82.0,75.0
0,Clyde River,-68.59,70.47,19.4,5.82,73.0,5.0
0,Chokurdakh,147.92,70.63,27.43,7.78,96.0,98.0
0,Berlevåg,29.09,70.86,35.6,10.29,89.0,75.0
0,Mehamn,27.85,71.04,39.2,11.41,80.0,75.0
0,Barrow,-156.79,71.29,8.6,14.99,92.0,90.0
0,Tiksi,128.87,71.69,10.22,10.42,96.0,100.0
0,Saskylakh,114.08,71.92,1.33,6.17,93.0,94.0
0,Khatanga,102.5,71.97,2.66,10.78,92.0,0.0
0,Upernavik,-56.15,72.79,20.07,9.08,91.0,34.0
0,Dikson,80.55,73.51,12.69,9.84,93.0,100.0
0,Qaanaaq,-69.36,77.48,16.9,1.19,89.0,100.0
0,Longyearbyen,15.64,78.22,30.2,3.36,68.0,75.0
